{
"type": "FeatureCollection",
"crs": { "type": "name", "properties": { "name": "urn:ogc:def:crs:OGC:1.3:CRS84" } },
                                                                                
"features": [
{ "type": "Feature", "properties": { "name": "Shenzhen", "latitude": 22.552371, "longitude": 114.122123 }, "geometry": { "type": "Point", "coordinates": [ 114.120177229832507, 22.554316369677963 ] } },
{ "type": "Feature", "properties": { "name": "Zibo", "latitude": 36.799988, "longitude": 118.049993 }, "geometry": { "type": "Point", "coordinates": [ 118.048047182437017, 36.801933467500533 ] } },
{ "type": "Feature", "properties": { "name": "Minneapolis", "latitude": 44.979979, "longitude": -93.251786 }, "geometry": { "type": "Point", "coordinates": [ -93.25373219666352, 44.981925126061867 ] } },
{ "type": "Feature", "properties": { "name": "Honolulu", "latitude": 21.306876, "longitude": -157.857998 }, "geometry": { "type": "Point", "coordinates": [ -157.859943744773602, 21.308822302073963 ] } },
{ "type": "Feature", "properties": { "name": "Seattle", "latitude": 47.570002, "longitude": -122.339985 }, "geometry": { "type": "Point", "coordinates": [ -122.34193084586849, 47.571947912530732 ] } },
{ "type": "Feature", "properties": { "name": "Phoenix", "latitude": 33.539980, "longitude": -112.069992 }, "geometry": { "type": "Point", "coordinates": [ -112.071937559694675, 33.541925736367602 ] } },
{ "type": "Feature", "properties": { "name": "San Diego", "latitude": 32.820024, "longitude": -117.179990 }, "geometry": { "type": "Point", "coordinates": [ -117.181935728660278, 32.821969681677331 ] } },
{ "type": "Feature", "properties": { "name": "St. Louis", "latitude": 38.635018, "longitude": -90.239981 }, "geometry": { "type": "Point", "coordinates": [ -90.241926369828604, 38.636963578185146 ] } },
{ "type": "Feature", "properties": { "name": "New Orleans", "latitude": 29.995002, "longitude": -90.039967 }, "geometry": { "type": "Point", "coordinates": [ -90.04191273864285, 29.996948319361479 ] } },
{ "type": "Feature", "properties": { "name": "Dallas", "latitude": 32.820024, "longitude": -96.840017 }, "geometry": { "type": "Point", "coordinates": [ -96.841962787498176, 32.821969681677331 ] } },
{ "type": "Feature", "properties": { "name": "Maracaibo", "latitude": 10.729977, "longitude": -71.659978 }, "geometry": { "type": "Point", "coordinates": [ -71.661923521446965, 10.731922684518565 ] } },
{ "type": "Feature", "properties": { "name": "Boston", "latitude": 42.329960, "longitude": -71.070014 }, "geometry": { "type": "Point", "coordinates": [ -71.071959532186838, 42.331906001702293 ] } },
{ "type": "Feature", "properties": { "name": "Tampa", "latitude": 27.946988, "longitude": -82.458621 }, "geometry": { "type": "Point", "coordinates": [ -82.46056670996677, 27.94893379298594 ] } },
{ "type": "Feature", "properties": { "name": "Philadelphia", "latitude": 39.999973, "longitude": -75.169996 }, "geometry": { "type": "Point", "coordinates": [ -75.171941832007917, 40.001919022526465 ] } },
{ "type": "Feature", "properties": { "name": "Detroit", "latitude": 42.329960, "longitude": -83.080056 }, "geometry": { "type": "Point", "coordinates": [ -83.082001646492699, 42.331906001702293 ] } },
{ "type": "Feature", "properties": { "name": "Anchorage", "latitude": 61.219970, "longitude": -149.900215 }, "geometry": { "type": "Point", "coordinates": [ -149.900214886454364, 61.219969908790006 ] } },
{ "type": "Feature", "properties": { "name": "Hanoi", "latitude": 21.033327, "longitude": 105.850014 }, "geometry": { "type": "Point", "coordinates": [ 105.848068341242197, 21.035273107737055 ] } },
{ "type": "Feature", "properties": { "name": "Ho Chi Minh City", "latitude": 10.780025, "longitude": 106.695027 }, "geometry": { "type": "Point", "coordinates": [ 106.693081362078885, 10.781971309193409 ] } },
{ "type": "Feature", "properties": { "name": "Ankara", "latitude": 39.927239, "longitude": 32.864392 }, "geometry": { "type": "Point", "coordinates": [ 32.862445782356644, 39.929184444075474 ] } },
{ "type": "Feature", "properties": { "name": "Budapest", "latitude": 47.500006, "longitude": 19.083321 }, "geometry": { "type": "Point", "coordinates": [ 19.081374818759684, 47.501952184991353 ] } },
{ "type": "Feature", "properties": { "name": "Sanaa", "latitude": 15.354733, "longitude": 44.206593 }, "geometry": { "type": "Point", "coordinates": [ 44.204647523938434, 15.356679154263645 ] } },
{ "type": "Feature", "properties": { "name": "Barcelona", "latitude": 41.383300, "longitude": 2.183370 }, "geometry": { "type": "Point", "coordinates": [ 2.181424460619155, 41.385245438547486 ] } },
{ "type": "Feature", "properties": { "name": "Bucharest", "latitude": 44.433372, "longitude": 26.099947 }, "geometry": { "type": "Point", "coordinates": [ 26.098000795350401, 44.435317663494573 ] } },
{ "type": "Feature", "properties": { "name": "Aleppo", "latitude": 36.229971, "longitude": 37.170020 }, "geometry": { "type": "Point", "coordinates": [ 37.168074444483182, 36.231916581105224 ] } },
{ "type": "Feature", "properties": { "name": "Damascus", "latitude": 33.500034, "longitude": 36.299996 }, "geometry": { "type": "Point", "coordinates": [ 36.298050030417073, 33.501979854206127 ] } },
{ "type": "Feature", "properties": { "name": "Zürich", "latitude": 47.379988, "longitude": 8.550010 }, "geometry": { "type": "Point", "coordinates": [ 8.548064271842577, 47.381933670993476 ] } },
{ "type": "Feature", "properties": { "name": "Lisbon", "latitude": 38.722723, "longitude": -9.144866 }, "geometry": { "type": "Point", "coordinates": [ -9.14681216410213, 38.724668736487843 ] } },
{ "type": "Feature", "properties": { "name": "Khartoum", "latitude": 15.588078, "longitude": 32.534179 }, "geometry": { "type": "Point", "coordinates": [ 32.532233380011576, 15.590024084277673 ] } },
{ "type": "Feature", "properties": { "name": "Jeddah", "latitude": 21.516889, "longitude": 39.219198 }, "geometry": { "type": "Point", "coordinates": [ 39.217251690585101, 21.518835322908046 ] } },
{ "type": "Feature", "properties": { "name": "Makkah", "latitude": 21.430021, "longitude": 39.820039 }, "geometry": { "type": "Point", "coordinates": [ 39.818093568842755, 21.43196724022539 ] } },
{ "type": "Feature", "properties": { "name": "Oslo", "latitude": 59.916690, "longitude": 10.749979 }, "geometry": { "type": "Point", "coordinates": [ 10.748033347372314, 59.918636145001869 ] } },
{ "type": "Feature", "properties": { "name": "Lahore", "latitude": 31.559972, "longitude": 74.350025 }, "geometry": { "type": "Point", "coordinates": [ 74.348078920543458, 31.56191739488844 ] } },
{ "type": "Feature", "properties": { "name": "Karachi", "latitude": 24.869992, "longitude": 66.990009 }, "geometry": { "type": "Point", "coordinates": [ 66.988063051373388, 24.871938146814841 ] } },
{ "type": "Feature", "properties": { "name": "Durban", "latitude": -29.865013, "longitude": 30.980011 }, "geometry": { "type": "Point", "coordinates": [ 30.978064678833391, -29.863067143117632 ] } },
{ "type": "Feature", "properties": { "name": "St. Petersburg", "latitude": 59.939015, "longitude": 30.316020 }, "geometry": { "type": "Point", "coordinates": [ 30.314074200315076, 59.940960363751913 ] } },
{ "type": "Feature", "properties": { "name": "Guadalajara", "latitude": 20.670016, "longitude": -103.330034 }, "geometry": { "type": "Point", "coordinates": [ -103.331980080818482, 20.671961950508944 ] } },
{ "type": "Feature", "properties": { "name": "Puebla", "latitude": 19.049960, "longitude": -98.200037 }, "geometry": { "type": "Point", "coordinates": [ -98.201983132555767, 19.051905798158714 ] } },
{ "type": "Feature", "properties": { "name": "Kano", "latitude": 11.999977, "longitude": 8.520038 }, "geometry": { "type": "Point", "coordinates": [ 8.518091941113255, 12.001922684523606 ] } },
{ "type": "Feature", "properties": { "name": "Warsaw", "latitude": 52.250001, "longitude": 21.000000 }, "geometry": { "type": "Point", "coordinates": [ 20.998053692465305, 52.251946488395561 ] } },
{ "type": "Feature", "properties": { "name": "Pyongyang", "latitude": 39.019439, "longitude": 125.754691 }, "geometry": { "type": "Point", "coordinates": [ 125.752744854993921, 39.021384558004343 ] } },
{ "type": "Feature", "properties": { "name": "Dar es Salaam", "latitude": -6.800013, "longitude": 39.268342 }, "geometry": { "type": "Point", "coordinates": [ 39.266395977694572, -6.798066736124383 ] } },
{ "type": "Feature", "properties": { "name": "Medan", "latitude": 3.579974, "longitude": 98.650040 }, "geometry": { "type": "Point", "coordinates": [ 98.648094382880117, 3.581919836182749 ] } },
{ "type": "Feature", "properties": { "name": "Dublin", "latitude": 53.333061, "longitude": -6.248906 }, "geometry": { "type": "Point", "coordinates": [ -6.250851540391068, 53.335006994584944 ] } },
{ "type": "Feature", "properties": { "name": "Monrovia", "latitude": 6.310557, "longitude": -10.804752 }, "geometry": { "type": "Point", "coordinates": [ -10.799660436775923, 6.314581647160139 ] } },
{ "type": "Feature", "properties": { "name": "Naples", "latitude": 40.840025, "longitude": 14.245011 }, "geometry": { "type": "Point", "coordinates": [ 14.243065492568519, 40.841971105863195 ] } },
{ "type": "Feature", "properties": { "name": "Milan", "latitude": 45.469975, "longitude": 9.205009 }, "geometry": { "type": "Point", "coordinates": [ 9.203063051142124, 45.471921057053521 ] } },
{ "type": "Feature", "properties": { "name": "Kuala Lumpur", "latitude": 3.166666, "longitude": 101.699983 }, "geometry": { "type": "Point", "coordinates": [ 101.698037416746445, 3.168611730712371 ] } },
{ "type": "Feature", "properties": { "name": "Lanzhou", "latitude": 36.056028, "longitude": 103.792000 }, "geometry": { "type": "Point", "coordinates": [ 103.790054425218443, 36.057973710010572 ] } },
{ "type": "Feature", "properties": { "name": "Nanning", "latitude": 22.819988, "longitude": 108.320044 }, "geometry": { "type": "Point", "coordinates": [ 108.318098451929245, 22.821934077796072 ] } },
{ "type": "Feature", "properties": { "name": "Guiyang", "latitude": 26.580043, "longitude": 106.720039 }, "geometry": { "type": "Point", "coordinates": [ 106.718092755308305, 26.581988806001448 ] } },
{ "type": "Feature", "properties": { "name": "Chongqing", "latitude": 29.564977, "longitude": 106.594982 }, "geometry": { "type": "Point", "coordinates": [ 106.593035789161945, 29.566922888044644 ] } },
{ "type": "Feature", "properties": { "name": "Fuzhou", "latitude": 26.079996, "longitude": 119.300046 }, "geometry": { "type": "Point", "coordinates": [ 119.298100079577466, 26.081941808929002 ] } },
{ "type": "Feature", "properties": { "name": "Guangzhou", "latitude": 23.144981, "longitude": 113.325010 }, "geometry": { "type": "Point", "coordinates": [ 113.323064272261718, 23.146927160479891 ] } },
{ "type": "Feature", "properties": { "name": "Dongguan", "latitude": 23.048889, "longitude": 113.744722 }, "geometry": { "type": "Point", "coordinates": [ 113.742776341387071, 23.050834758613007 ] } },
{ "type": "Feature", "properties": { "name": "Bandung", "latitude": -6.950029, "longitude": 107.570013 }, "geometry": { "type": "Point", "coordinates": [ 107.568066713645067, -6.948083419067757 ] } },
{ "type": "Feature", "properties": { "name": "Surabaya", "latitude": -7.249236, "longitude": 112.750833 }, "geometry": { "type": "Point", "coordinates": [ 112.748887433066898, -7.247289962037485 ] } },
{ "type": "Feature", "properties": { "name": "Guayaquil", "latitude": -2.220034, "longitude": -79.920042 }, "geometry": { "type": "Point", "coordinates": [ -79.921987811844531, -2.218087894960149 ] } },
{ "type": "Feature", "properties": { "name": "Medellin", "latitude": 6.275003, "longitude": -75.575010 }, "geometry": { "type": "Point", "coordinates": [ -75.57695587009556, 6.276949133068513 ] } },
{ "type": "Feature", "properties": { "name": "Cali", "latitude": 3.399959, "longitude": -76.499966 }, "geometry": { "type": "Point", "coordinates": [ -76.501912331687606, 3.401904984294049 ] } },
{ "type": "Feature", "properties": { "name": "Havana", "latitude": 23.131959, "longitude": -82.364182 }, "geometry": { "type": "Point", "coordinates": [ -82.366128029953302, 23.1339046995422 ] } },
{ "type": "Feature", "properties": { "name": "Alexandria", "latitude": 31.200019, "longitude": 29.949996 }, "geometry": { "type": "Point", "coordinates": [ 29.948050030391755, 31.201965205759393 ] } },
{ "type": "Feature", "properties": { "name": "Frankfurt", "latitude": 50.099977, "longitude": 8.675015 }, "geometry": { "type": "Point", "coordinates": [ 8.675015420169643, 50.099976826063312 ] } },
{ "type": "Feature", "properties": { "name": "Hamburg", "latitude": 53.550025, "longitude": 9.999999 }, "geometry": { "type": "Point", "coordinates": [ 9.998053285520314, 53.551970495562443 ] } },
{ "type": "Feature", "properties": { "name": "Munich", "latitude": 48.129942, "longitude": 11.574993 }, "geometry": { "type": "Point", "coordinates": [ 11.573047588912061, 48.131887894629244 ] } },
{ "type": "Feature", "properties": { "name": "Prague", "latitude": 50.083337, "longitude": 14.465980 }, "geometry": { "type": "Point", "coordinates": [ 14.464033917048539, 50.08528287347832 ] } },
{ "type": "Feature", "properties": { "name": "Kuwait", "latitude": 29.369718, "longitude": 47.978301 }, "geometry": { "type": "Point", "coordinates": [ 47.976355287625267, 29.371663488629565 ] } },
{ "type": "Feature", "properties": { "name": "Xian", "latitude": 34.275025, "longitude": 108.894996 }, "geometry": { "type": "Point", "coordinates": [ 108.893050437608622, 34.276971309287319 ] } },
{ "type": "Feature", "properties": { "name": "Taiyuan", "latitude": 37.875012, "longitude": 112.545058 }, "geometry": { "type": "Point", "coordinates": [ 112.543111879680509, 37.876958288468416 ] } },
{ "type": "Feature", "properties": { "name": "Wuhan", "latitude": 30.580031, "longitude": 114.270017 }, "geometry": { "type": "Point", "coordinates": [ 114.268071189583111, 30.581977209337822 ] } },
{ "type": "Feature", "properties": { "name": "Changsha", "latitude": 28.199970, "longitude": 112.969993 }, "geometry": { "type": "Point", "coordinates": [ 112.968047182416512, 28.201915767270805 ] } },
{ "type": "Feature", "properties": { "name": "Kunming", "latitude": 25.069980, "longitude": 102.679975 }, "geometry": { "type": "Point", "coordinates": [ 102.678029278729639, 25.071925939784478 ] } },
{ "type": "Feature", "properties": { "name": "Zhengzhou", "latitude": 34.754996, "longitude": 113.665093 }, "geometry": { "type": "Point", "coordinates": [ 113.663146873174583, 34.756942012414299 ] } },
{ "type": "Feature", "properties": { "name": "Shenyeng", "latitude": 41.804979, "longitude": 123.449974 }, "geometry": { "type": "Point", "coordinates": [ 123.44802765120869, 41.80692512604918 ] } },
{ "type": "Feature", "properties": { "name": "Jinan", "latitude": 36.674982, "longitude": 116.995019 }, "geometry": { "type": "Point", "coordinates": [ 116.993072817198481, 36.676928177786408 ] } },
{ "type": "Feature", "properties": { "name": "Tianjin", "latitude": 39.130026, "longitude": 117.200019 }, "geometry": { "type": "Point", "coordinates": [ 117.198073224100426, 39.131972123108937 ] } },
{ "type": "Feature", "properties": { "name": "Nanchang", "latitude": 28.679992, "longitude": 115.879996 }, "geometry": { "type": "Point", "coordinates": [ 115.878050437636603, 28.681938146830078 ] } },
{ "type": "Feature", "properties": { "name": "Nanjing", "latitude": 32.050019, "longitude": 118.779974 }, "geometry": { "type": "Point", "coordinates": [ 118.778028464992076, 32.051965002312329 ] } },
{ "type": "Feature", "properties": { "name": "Hangzhou", "latitude": 30.249974, "longitude": 120.170019 }, "geometry": { "type": "Point", "coordinates": [ 120.168072817210941, 30.251919836289517 ] } },
{ "type": "Feature", "properties": { "name": "Hiroshima", "latitude": 34.387835, "longitude": 132.442913 }, "geometry": { "type": "Point", "coordinates": [ 132.440967104369747, 34.389780960980602 ] } },
{ "type": "Feature", "properties": { "name": "Changchun", "latitude": 43.865009, "longitude": 125.339987 }, "geometry": { "type": "Point", "coordinates": [ 125.338041485851477, 43.866954422932508 ] } },
{ "type": "Feature", "properties": { "name": "Baotou", "latitude": 40.652207, "longitude": 109.822020 }, "geometry": { "type": "Point", "coordinates": [ 109.820073956492593, 40.654153112698395 ] } },
{ "type": "Feature", "properties": { "name": "Harbin", "latitude": 45.749984, "longitude": 126.649985 }, "geometry": { "type": "Point", "coordinates": [ 126.64803904445057, 45.751929805427153 ] } },
{ "type": "Feature", "properties": { "name": "Sapporo", "latitude": 43.074979, "longitude": 141.340044 }, "geometry": { "type": "Point", "coordinates": [ 141.338098452061558, 43.076925126054221 ] } },
{ "type": "Feature", "properties": { "name": "Santo Domingo", "latitude": 18.470073, "longitude": -69.900085 }, "geometry": { "type": "Point", "coordinates": [ -69.902030943315026, 18.472018713195382 ] } },
{ "type": "Feature", "properties": { "name": "Accra", "latitude": 5.550035, "longitude": -0.216716 }, "geometry": { "type": "Point", "coordinates": [ -0.218661598960693, 5.551980464445933 ] } },
{ "type": "Feature", "properties": { "name": "Delhi", "latitude": 28.669993, "longitude": 77.230004 }, "geometry": { "type": "Point", "coordinates": [ 77.228058168601819, 28.671938757181522 ] } },
{ "type": "Feature", "properties": { "name": "Hyderabad", "latitude": 17.399983, "longitude": 78.479954 }, "geometry": { "type": "Point", "coordinates": [ 78.478007712877513, 17.401928991511454 ] } },
{ "type": "Feature", "properties": { "name": "Pune", "latitude": 18.530018, "longitude": 73.850004 }, "geometry": { "type": "Point", "coordinates": [ 73.848057761687187, 18.531963374654026 ] } },
{ "type": "Feature", "properties": { "name": "Nagpur", "latitude": 21.169960, "longitude": 79.089994 }, "geometry": { "type": "Point", "coordinates": [ 79.088047996083105, 21.171905594716634 ] } },
{ "type": "Feature", "properties": { "name": "Tripoli", "latitude": 32.892500, "longitude": 13.180012 }, "geometry": { "type": "Point", "coordinates": [ 13.180011758078194, 32.89250001935369 ] } },
{ "type": "Feature", "properties": { "name": "Tel Aviv-Yafo", "latitude": 32.079991, "longitude": 34.770012 }, "geometry": { "type": "Point", "coordinates": [ 34.768065899551743, 32.081937333041651 ] } },
{ "type": "Feature", "properties": { "name": "Helsinki", "latitude": 60.175563, "longitude": 24.934126 }, "geometry": { "type": "Point", "coordinates": [ 24.932180482845581, 60.17750923256807 ] } },
{ "type": "Feature", "properties": { "name": "Mashhad", "latitude": 36.270020, "longitude": 59.569997 }, "geometry": { "type": "Point", "coordinates": [ 59.568050844312324, 36.271965816131171 ] } },
{ "type": "Feature", "properties": { "name": "Jaipur", "latitude": 26.921133, "longitude": 75.809987 }, "geometry": { "type": "Point", "coordinates": [ 75.808041485653405, 26.923079097343759 ] } },
{ "type": "Feature", "properties": { "name": "Kanpur", "latitude": 26.459999, "longitude": 80.319996 }, "geometry": { "type": "Point", "coordinates": [ 80.318050437494378, 26.461944453787225 ] } },
{ "type": "Feature", "properties": { "name": "Patna", "latitude": 25.624959, "longitude": 85.130039 }, "geometry": { "type": "Point", "coordinates": [ 85.128092755221815, 25.626904984382918 ] } },
{ "type": "Feature", "properties": { "name": "Chennai", "latitude": 13.089988, "longitude": 80.279999 }, "geometry": { "type": "Point", "coordinates": [ 80.278052878900326, 13.091933670856292 ] } },
{ "type": "Feature", "properties": { "name": "Ahmedabad", "latitude": 23.030053, "longitude": 72.580004 }, "geometry": { "type": "Point", "coordinates": [ 72.578057761682146, 23.031998775062675 ] } },
{ "type": "Feature", "properties": { "name": "Surat", "latitude": 21.199984, "longitude": 72.840039 }, "geometry": { "type": "Point", "coordinates": [ 72.838093568974841, 21.201929601878192 ] } },
{ "type": "Feature", "properties": { "name": "København", "latitude": 55.678564, "longitude": 12.563486 }, "geometry": { "type": "Point", "coordinates": [ 12.561539888703294, 55.680510049025941 ] } },
{ "type": "Feature", "properties": { "name": "Abidjan", "latitude": 5.319997, "longitude": -4.040048 }, "geometry": { "type": "Point", "coordinates": [ -4.041994118507091, 5.321942826098564 ] } },
{ "type": "Feature", "properties": { "name": "Belem", "latitude": -1.450003, "longitude": -48.480023 }, "geometry": { "type": "Point", "coordinates": [ -48.481968890820383, -1.448057377378973 ] } },
{ "type": "Feature", "properties": { "name": "Brasilia", "latitude": -15.783340, "longitude": -47.916052 }, "geometry": { "type": "Point", "coordinates": [ -47.917998147003061, -15.781394372878992 ] } },
{ "type": "Feature", "properties": { "name": "Porto Alegre", "latitude": -30.050015, "longitude": -51.200012 }, "geometry": { "type": "Point", "coordinates": [ -51.201957904503161, -30.048068770722466 ] } },
{ "type": "Feature", "properties": { "name": "Curitiba", "latitude": -25.420013, "longitude": -49.319998 }, "geometry": { "type": "Point", "coordinates": [ -49.321943459508589, -25.418067143099847 ] } },
{ "type": "Feature", "properties": { "name": "Fortaleza", "latitude": -3.750018, "longitude": -38.579981 }, "geometry": { "type": "Point", "coordinates": [ -38.581927183424114, -3.748072025825763 ] } },
{ "type": "Feature", "properties": { "name": "Salvador", "latitude": -12.969972, "longitude": -38.479987 }, "geometry": { "type": "Point", "coordinates": [ -38.481933286939238, -12.968026046044827 ] } },
{ "type": "Feature", "properties": { "name": "Edmonton", "latitude": 53.550025, "longitude": -113.499982 }, "geometry": { "type": "Point", "coordinates": [ -113.501927794075186, 53.551970495562443 ] } },
{ "type": "Feature", "properties": { "name": "Montréal", "latitude": 45.499999, "longitude": -73.583297 }, "geometry": { "type": "Point", "coordinates": [ -73.585242816702134, 45.501945064215022 ] } },
{ "type": "Feature", "properties": { "name": "Goiania", "latitude": -16.720027, "longitude": -49.300025 }, "geometry": { "type": "Point", "coordinates": [ -49.301970518427936, -16.718081384601533 ] } },
{ "type": "Feature", "properties": { "name": "Recife", "latitude": -8.075645, "longitude": -34.915606 }, "geometry": { "type": "Point", "coordinates": [ -34.917551369607281, -8.073699467249241 ] } },
{ "type": "Feature", "properties": { "name": "Brussels", "latitude": 50.833317, "longitude": 4.333317 }, "geometry": { "type": "Point", "coordinates": [ 4.33137074969045, 50.83526293533032 ] } },
{ "type": "Feature", "properties": { "name": "Dhaka", "latitude": 23.723060, "longitude": 90.408579 }, "geometry": { "type": "Point", "coordinates": [ 90.406633608107541, 23.725005570312817 ] } },
{ "type": "Feature", "properties": { "name": "Luanda", "latitude": -8.838286, "longitude": 13.234427 }, "geometry": { "type": "Point", "coordinates": [ 13.23248118266855, -8.836340255012658 ] } },
{ "type": "Feature", "properties": { "name": "Algiers", "latitude": 36.763065, "longitude": 3.050553 }, "geometry": { "type": "Point", "coordinates": [ 3.048606670909237, 36.765010656628135 ] } },
{ "type": "Feature", "properties": { "name": "Chittagong", "latitude": 22.329992, "longitude": 91.799967 }, "geometry": { "type": "Point", "coordinates": [ 91.79802154756635, 22.331938146804589 ] } },
{ "type": "Feature", "properties": { "name": "Perth", "latitude": -31.955015, "longitude": 115.839999 }, "geometry": { "type": "Point", "coordinates": [ 115.838052879042721, -31.953068770730169 ] } },
{ "type": "Feature", "properties": { "name": "Rangoon", "latitude": 16.783354, "longitude": 96.166678 }, "geometry": { "type": "Point", "coordinates": [ 96.164731752661851, 16.785299963188777 ] } },
{ "type": "Feature", "properties": { "name": "San Francisco", "latitude": 37.740008, "longitude": -122.459978 }, "geometry": { "type": "Point", "coordinates": [ -122.417168773552248, 37.769195629687431 ] } },
{ "type": "Feature", "properties": { "name": "Denver", "latitude": 39.739188, "longitude": -104.984016 }, "geometry": { "type": "Point", "coordinates": [ -104.985961810968206, 39.741133906965501 ] } },
{ "type": "Feature", "properties": { "name": "Houston", "latitude": 29.819974, "longitude": -95.339979 }, "geometry": { "type": "Point", "coordinates": [ -95.341925149145993, 29.821920243188856 ] } },
{ "type": "Feature", "properties": { "name": "Miami", "latitude": 25.787611, "longitude": -80.224106 }, "geometry": { "type": "Point", "coordinates": [ -80.226051939450031, 25.789556555021534 ] } },
{ "type": "Feature", "properties": { "name": "Atlanta", "latitude": 33.830014, "longitude": -84.399949 }, "geometry": { "type": "Point", "coordinates": [ -84.40189524187565, 33.831959712605851 ] } },
{ "type": "Feature", "properties": { "name": "Chicago", "latitude": 41.829991, "longitude": -87.750055 }, "geometry": { "type": "Point", "coordinates": [ -87.752000832709314, 41.831936519278429 ] } },
{ "type": "Feature", "properties": { "name": "Caracas", "latitude": 10.500999, "longitude": -66.917037 }, "geometry": { "type": "Point", "coordinates": [ -66.918983051050418, 10.502944413033333 ] } },
{ "type": "Feature", "properties": { "name": "Kiev", "latitude": 50.433367, "longitude": 30.516628 }, "geometry": { "type": "Point", "coordinates": [ 30.514682110472165, 50.435313187607221 ] } },
{ "type": "Feature", "properties": { "name": "Dubai", "latitude": 25.229996, "longitude": 55.279974 }, "geometry": { "type": "Point", "coordinates": [ 55.278028464737872, 25.231942012376066 ] } },
{ "type": "Feature", "properties": { "name": "Tashkent", "latitude": 41.311702, "longitude": 69.294933 }, "geometry": { "type": "Point", "coordinates": [ 69.292986960887788, 41.313647741607213 ] } },
{ "type": "Feature", "properties": { "name": "Madrid", "latitude": 40.400026, "longitude": -3.683352 }, "geometry": { "type": "Point", "coordinates": [ -3.685297544612524, 40.401972123113808 ] } },
{ "type": "Feature", "properties": { "name": "Geneva", "latitude": 46.210008, "longitude": 6.140028 }, "geometry": { "type": "Point", "coordinates": [ 6.140028034091699, 46.210007547076259 ] } },
{ "type": "Feature", "properties": { "name": "Stockholm", "latitude": 59.350760, "longitude": 18.097335 }, "geometry": { "type": "Point", "coordinates": [ 18.095388874180912, 59.35270581286585 ] } },
{ "type": "Feature", "properties": { "name": "Bangkok", "latitude": 13.749999, "longitude": 100.516645 }, "geometry": { "type": "Point", "coordinates": [ 100.51469879369489, 13.751945064087977 ] } },
{ "type": "Feature", "properties": { "name": "Lima", "latitude": -12.048013, "longitude": -77.050062 }, "geometry": { "type": "Point", "coordinates": [ -77.052007953434725, -12.046066817525571 ] } },
{ "type": "Feature", "properties": { "name": "Dakar", "latitude": 14.715832, "longitude": -17.473130 }, "geometry": { "type": "Point", "coordinates": [ -17.475075987050559, 14.717777583623274 ] } },
{ "type": "Feature", "properties": { "name": "Johannesburg", "latitude": -26.170045, "longitude": 28.030010 }, "geometry": { "type": "Point", "coordinates": [ 28.028063865019476, -26.16809888138414 ] } },
{ "type": "Feature", "properties": { "name": "Amsterdam", "latitude": 52.349969, "longitude": 4.916640 }, "geometry": { "type": "Point", "coordinates": [ 4.914694317400972, 52.351914546664432 ] } },
{ "type": "Feature", "properties": { "name": "Casablanca", "latitude": 33.599976, "longitude": -7.616367 }, "geometry": { "type": "Point", "coordinates": [ -7.618313291698712, 33.601922074258482 ] } },
{ "type": "Feature", "properties": { "name": "Seoul", "latitude": 37.566349, "longitude": 126.999731 }, "geometry": { "type": "Point", "coordinates": [ 126.997785138201948, 37.568294958388947 ] } },
{ "type": "Feature", "properties": { "name": "Manila", "latitude": 14.604159, "longitude": 120.982217 }, "geometry": { "type": "Point", "coordinates": [ 120.980271303542395, 14.606104813440538 ] } },
{ "type": "Feature", "properties": { "name": "Monterrey", "latitude": 25.669995, "longitude": -100.329985 }, "geometry": { "type": "Point", "coordinates": [ -100.331930642329951, 25.671940995125283 ] } },
{ "type": "Feature", "properties": { "name": "Auckland", "latitude": -36.850013, "longitude": 174.764981 }, "geometry": { "type": "Point", "coordinates": [ 174.763034975632536, -36.84806714314567 ] } },
{ "type": "Feature", "properties": { "name": "Berlin", "latitude": 52.521819, "longitude": 13.401549 }, "geometry": { "type": "Point", "coordinates": [ 13.399602764700546, 52.523764522251156 ] } },
{ "type": "Feature", "properties": { "name": "Urumqi", "latitude": 43.805012, "longitude": 87.575006 }, "geometry": { "type": "Point", "coordinates": [ 87.573059796247264, 43.806958085041799 ] } },
{ "type": "Feature", "properties": { "name": "Chengdu", "latitude": 30.670000, "longitude": 104.070019 }, "geometry": { "type": "Point", "coordinates": [ 104.068073630948732, 30.671945877957796 ] } },
{ "type": "Feature", "properties": { "name": "Osaka", "latitude": 34.750035, "longitude": 135.460145 }, "geometry": { "type": "Point", "coordinates": [ 135.458198956595197, 34.75198107491417 ] } },
{ "type": "Feature", "properties": { "name": "Kinshasa", "latitude": -4.329724, "longitude": 15.314972 }, "geometry": { "type": "Point", "coordinates": [ 15.313026023171744, -4.327778243275986 ] } },
{ "type": "Feature", "properties": { "name": "New Delhi", "latitude": 28.600023, "longitude": 77.199980 }, "geometry": { "type": "Point", "coordinates": [ 77.199980020053033, 28.600023009245433 ] } },
{ "type": "Feature", "properties": { "name": "Bangalore", "latitude": 12.969995, "longitude": 77.560010 }, "geometry": { "type": "Point", "coordinates": [ 77.558063865217548, 12.971940995074419 ] } },
{ "type": "Feature", "properties": { "name": "Athens", "latitude": 37.983326, "longitude": 23.733321 }, "geometry": { "type": "Point", "coordinates": [ 23.731375225679358, 37.985272090552257 ] } },
{ "type": "Feature", "properties": { "name": "Baghdad", "latitude": 33.338648, "longitude": 44.393869 }, "geometry": { "type": "Point", "coordinates": [ 44.391922914564134, 33.340594356158647 ] } },
{ "type": "Feature", "properties": { "name": "Addis Ababa", "latitude": 9.033310, "longitude": 38.700004 }, "geometry": { "type": "Point", "coordinates": [ 38.698058575348682, 9.035256221295754 ] } },
{ "type": "Feature", "properties": { "name": "Tehran", "latitude": 35.671943, "longitude": 51.424344 }, "geometry": { "type": "Point", "coordinates": [ 51.422398175008993, 35.673888627001304 ] } },
{ "type": "Feature", "properties": { "name": "Vancouver", "latitude": 49.273417, "longitude": -123.121644 }, "geometry": { "type": "Point", "coordinates": [ -123.123590076394294, 49.275362442711753 ] } },
{ "type": "Feature", "properties": { "name": "Toronto", "latitude": 43.699980, "longitude": -79.420021 }, "geometry": { "type": "Point", "coordinates": [ -79.421966652988431, 43.701925736408441 ] } },
{ "type": "Feature", "properties": { "name": "Buenos Aires", "latitude": -34.602502, "longitude": -58.397531 }, "geometry": { "type": "Point", "coordinates": [ -58.399477232331435, -34.600555749907414 ] } },
{ "type": "Feature", "properties": { "name": "Kabul", "latitude": 34.516690, "longitude": 69.183260 }, "geometry": { "type": "Point", "coordinates": [ 69.181314190705052, 34.518636144900313 ] } },
{ "type": "Feature", "properties": { "name": "Vienna", "latitude": 48.200015, "longitude": 16.366639 }, "geometry": { "type": "Point", "coordinates": [ 16.364693096743736, 48.201961136816863 ] } },
{ "type": "Feature", "properties": { "name": "Melbourne", "latitude": -37.820031, "longitude": 144.975016 }, "geometry": { "type": "Point", "coordinates": [ 144.973070375904058, -37.818085453696312 ] } },
{ "type": "Feature", "properties": { "name": "Taipei", "latitude": 25.035833, "longitude": 121.568333 }, "geometry": { "type": "Point", "coordinates": [ 121.568333333333001, 25.035833333333301 ] } },
{ "type": "Feature", "properties": { "name": "Los Angeles", "latitude": 33.989978, "longitude": -118.179981 }, "geometry": { "type": "Point", "coordinates": [ -118.181926369940413, 33.991924108765431 ] } },
{ "type": "Feature", "properties": { "name": "Washington, D.C.", "latitude": 38.899549, "longitude": -77.009419 }, "geometry": { "type": "Point", "coordinates": [ -77.011364439437159, 38.901495235087054 ] } },
{ "type": "Feature", "properties": { "name": "New York", "latitude": 40.749979, "longitude": -73.980017 }, "geometry": { "type": "Point", "coordinates": [ -73.981962787406815, 40.75192492259464 ] } },
{ "type": "Feature", "properties": { "name": "London", "latitude": 51.499995, "longitude": -0.116722 }, "geometry": { "type": "Point", "coordinates": [ -0.118667702475932, 51.5019405883275 ] } },
{ "type": "Feature", "properties": { "name": "Istanbul", "latitude": 41.104996, "longitude": 29.010002 }, "geometry": { "type": "Point", "coordinates": [ 29.008055727002613, 41.106942012439788 ] } },
{ "type": "Feature", "properties": { "name": "Riyadh", "latitude": 24.640833, "longitude": 46.772742 }, "geometry": { "type": "Point", "coordinates": [ 46.770795798688255, 24.642779007816443 ] } },
{ "type": "Feature", "properties": { "name": "Cape Town", "latitude": -33.920011, "longitude": 18.434988 }, "geometry": { "type": "Point", "coordinates": [ 18.433042299226031, -33.918065108628753 ] } },
{ "type": "Feature", "properties": { "name": "Moscow", "latitude": 55.752164, "longitude": 37.615523 }, "geometry": { "type": "Point", "coordinates": [ 37.613576967271399, 55.754109981248178 ] } },
{ "type": "Feature", "properties": { "name": "Mexico City", "latitude": 19.442442, "longitude": -99.130988 }, "geometry": { "type": "Point", "coordinates": [ -99.132934060293906, 19.444388301415472 ] } },
{ "type": "Feature", "properties": { "name": "Lagos", "latitude": 6.443262, "longitude": 3.391531 }, "geometry": { "type": "Point", "coordinates": [ 3.389585212598433, 6.445207512093191 ] } },
{ "type": "Feature", "properties": { "name": "Rome", "latitude": 41.895956, "longitude": 12.483258 }, "geometry": { "type": "Point", "coordinates": [ 12.481312562873995, 41.897901485098942 ] } },
{ "type": "Feature", "properties": { "name": "Beijing", "latitude": 39.928892, "longitude": 116.388286 }, "geometry": { "type": "Point", "coordinates": [ 116.386339825659434, 39.930838089909059 ] } },
{ "type": "Feature", "properties": { "name": "Nairobi", "latitude": -1.283347, "longitude": 36.816657 }, "geometry": { "type": "Point", "coordinates": [ 36.814711000471448, -1.281400883237779 ] } },
{ "type": "Feature", "properties": { "name": "Jakarta", "latitude": -6.174418, "longitude": 106.829438 }, "geometry": { "type": "Point", "coordinates": [ 106.827491762470117, -6.172471846798885 ] } },
{ "type": "Feature", "properties": { "name": "Bogota", "latitude": 4.596424, "longitude": -74.083344 }, "geometry": { "type": "Point", "coordinates": [ -74.085289813774409, 4.598369421147822 ] } },
{ "type": "Feature", "properties": { "name": "Cairo", "latitude": 30.049960, "longitude": 31.249968 }, "geometry": { "type": "Point", "coordinates": [ 31.248022361126118, 30.051906205103705 ] } },
{ "type": "Feature", "properties": { "name": "Shanghai", "latitude": 31.216452, "longitude": 121.436505 }, "geometry": { "type": "Point", "coordinates": [ 121.434558819820154, 31.218398311228327 ] } },
{ "type": "Feature", "properties": { "name": "Tokyo", "latitude": 35.685017, "longitude": 139.751407 }, "geometry": { "type": "Point", "coordinates": [ 139.749461570544668, 35.686962764371174 ] } },
{ "type": "Feature", "properties": { "name": "Mumbai", "latitude": 19.016990, "longitude": 72.856989 }, "geometry": { "type": "Point", "coordinates": [ 72.855043438766472, 19.018936234356602 ] } },
{ "type": "Feature", "properties": { "name": "Paris", "latitude": 48.866693, "longitude": 2.333335 }, "geometry": { "type": "Point", "coordinates": [ 2.33138946713035, 48.868638789814611 ] } },
{ "type": "Feature", "properties": { "name": "Santiago", "latitude": -33.450014, "longitude": -70.667041 }, "geometry": { "type": "Point", "coordinates": [ -70.668986713174831, -33.448067956934096 ] } },
{ "type": "Feature", "properties": { "name": "Kolkata", "latitude": 22.494969, "longitude": 88.324676 }, "geometry": { "type": "Point", "coordinates": [ 88.32272979950551, 22.496915156896421 ] } },
{ "type": "Feature", "properties": { "name": "Rio de Janeiro", "latitude": -22.925023, "longitude": -43.225021 }, "geometry": { "type": "Point", "coordinates": [ -43.226966652843657, -22.923077315615956 ] } },
{ "type": "Feature", "properties": { "name": "Sao Paulo", "latitude": -23.558680, "longitude": -46.625020 }, "geometry": { "type": "Point", "coordinates": [ -46.626965839055231, -23.556733728378958 ] } },
{ "type": "Feature", "properties": { "name": "Sydney", "latitude": -33.920011, "longitude": 151.185180 }, "geometry": { "type": "Point", "coordinates": [ 151.183233950147496, -33.918065108628753 ] } },
{ "type": "Feature", "properties": { "name": "Singapore", "latitude": 1.293033, "longitude": 103.855821 }, "geometry": { "type": "Point", "coordinates": [ 103.853874819099019, 1.294979325105942 ] } },
{ "type": "Feature", "properties": { "name": "Hong Kong", "latitude": 22.304981, "longitude": 114.185009 }, "geometry": { "type": "Point", "coordinates": [ 114.183063458463039, 22.30692675357551 ] } }
]
}
